[
    {
        "nome": "Adige",
        "lat": 45.95697657359466,
        "lon": 11.109046480238218
    },
        {
        "nome": "Rio_Molini",
        "lat": 46.847800067409096,
        "lon": 11.973121299374963
    },
    {
        "nome": "Rio_Piazzo",
        "lat": 46.18352643971823,
        "lon": 11.246969146943071
    },
    {
        "nome": "Rio_val_Morela",
        "lat": 46.68352643971823,
        "lon": 11.046969146943071
    },
    {
        "nome": "Rio_San_Clemente",
        "lat": 46.38352643971823,
        "lon": 11.946969146943071
    }
]


